time_ms,throttle,pitch,roll,yaw,m1,m2,m3,m4
949,1498,-3.88,3.07,0.28,1000,1000,1000,1000
1387,1498,-3.89,3.07,0.26,1000,1000,1000,1000
1566,1498,-3.88,3.06,0.24,1000,1000,1000,1000
1702,1498,-3.85,3.08,0.17,1000,1000,1000,1000
1835,1498,-3.89,3.07,0.18,1000,1000,1000,1000
1927,1498,-3.88,3.06,0.15,1000,1000,1000,1000
2044,1498,-3.86,3.06,0.23,1000,1000,1000,1000
2181,1498,-3.88,3.06,0.27,1000,1000,1000,1000
2272,1498,-3.86,3.05,0.09,1000,1000,1000,1000
2364,1499,-3.92,3.07,0.39,1000,1000,1000,1000
2498,1498,-3.9,3.06,0.04,1000,1000,1000,1000
2609,1498,-3.89,3.06,0.24,1000,1000,1000,1000
2770,1498,-3.88,3.09,0.24,1000,1000,1000,1000
2860,1498,-3.9,3.09,0.12,1000,1000,1000,1000
2973,1498,-3.91,3.08,0.18,1000,1000,1000,1000
3063,1498,-3.93,3.07,0.21,1000,1000,1000,1000
3178,1498,-3.94,3.05,0.11,1000,1000,1000,1000
3291,1498,-3.91,3.07,0.14,1000,1000,1000,1000
3384,1498,-3.9,3.09,0.27,1000,1000,1000,1000
3474,1498,-3.9,3.07,0.32,1000,1000,1000,1000
3567,1498,-3.87,3.05,0.21,1000,1000,1000,1000
3657,1498,-3.84,3.03,0.31,1000,1000,1000,1000
3750,1498,-3.88,3.04,0.25,1000,1000,1000,1000
3840,1498,-3.9,3.06,0.23,1000,1000,1000,1000
3956,1498,-3.86,3.08,0.27,1000,1000,1000,1000
4045,1498,-3.86,3.08,0.18,1000,1000,1000,1000
4162,1498,-3.88,3.08,0.09,1000,1000,1000,1000
4254,1498,-3.88,3.08,0.18,1000,1000,1000,1000
4342,1498,-3.91,3.06,0.08,1000,1000,1000,1000
4430,1498,-3.92,3.05,0.34,1000,1000,1000,1000
4525,1498,-3.91,3.07,0.18,1000,1000,1000,1000
4636,1498,-3.87,3.08,0.25,1000,1000,1000,1000
4753,1498,-3.87,3.09,0.27,1000,1000,1000,1000
4864,1498,-3.89,3.11,0.16,1000,1000,1000,1000
4979,1498,-3.9,3.11,0.2,1000,1000,1000,1000
5070,1498,-3.89,3.09,0.3,1000,1000,1000,1000
5182,1498,-3.87,3.08,0.18,1000,1000,1000,1000
5276,1498,-3.89,3.1,0.1,1000,1000,1000,1000
5388,1498,-3.89,3.1,0.24,1000,1000,1000,1000
5499,1498,-3.88,3.05,0.27,1000,1000,1000,1000
5592,1498,-3.88,3.07,0.25,1000,1000,1000,1000
5685,1498,-3.91,3.07,0.07,1000,1000,1000,1000
5777,1498,-3.9,3.08,0.25,1000,1000,1000,1000
5867,1498,-3.91,3.07,0.17,1000,1000,1000,1000
5956,1498,-3.92,3.07,0.14,1000,1000,1000,1000
6074,1498,-3.89,3.06,0.18,1000,1000,1000,1000
6182,1498,-3.86,3.05,0.19,1000,1000,1000,1000
6276,1498,-3.86,3.07,0.24,1000,1000,1000,1000
6369,1498,-3.87,3.06,0.09,1000,1000,1000,1000
6455,1500,-3.88,3.04,0.27,1000,1000,1000,1000
6546,1564,-3.91,3.07,0.23,1000,1000,1000,1000
6663,1740,-3.89,3.06,0.15,1000,1000,1000,1000
6753,1815,-3.85,3.07,0.35,1000,1000,1000,1000
6846,1831,-3.87,3.09,0.12,1000,1000,1000,1000
6980,1853,-3.89,3.1,0.35,1000,1000,1000,1000
7117,1786,-3.87,3.07,-0.08,1000,1000,1000,1000
7205,1508,-3.86,3.06,-0.08,1000,1000,1000,1000
7341,1498,-3.89,3.07,0.31,1000,1000,1000,1000
7428,1408,-3.83,3.05,0.18,1000,1000,1000,1000
7541,1000,-3.84,3.07,0.22,1000,1000,1000,1000
7724,1000,-3.87,3.05,0.09,1000,1000,1000,1000
7857,1498,-3.86,3.04,0.14,1000,1000,1000,1000
7969,1498,-3.89,3.05,0.14,1000,1000,1000,1000
8065,1498,-3.88,3.07,0.3,1000,1000,1000,1000
8176,1499,-3.86,3.07,0.07,1000,1000,1000,1000
8312,1498,-3.87,3.09,0.1,1000,1000,1000,1000
8409,1498,-3.85,3.07,0.22,1000,1000,1000,1000
8499,1498,-3.87,3.09,0.1,1000,1000,1000,1000
8588,1498,-3.87,3.1,0.07,1000,1000,1000,1000
8744,1498,-3.89,3.08,0.18,1000,1000,1000,1000
8863,1498,-3.89,3.06,0.22,1000,1000,1000,1000
8953,1498,-3.91,3.06,0.12,1000,1000,1000,1000
9043,1498,-3.92,3.09,0.32,1000,1000,1000,1000
9136,1498,-3.91,3.08,0.16,1000,1000,1000,1000
9250,1498,-3.91,3.07,0.31,1000,1000,1000,1000
9343,1498,-3.91,3.04,0.14,1000,1000,1000,1000
9476,1498,-3.87,3.07,0.2,1000,1000,1000,1000
9567,1498,-3.87,3.06,0.22,1000,1000,1000,1000
9678,1498,-3.87,3.04,0.24,1000,1000,1000,1000
9766,1498,-3.87,3.05,0.18,1000,1000,1000,1000
9861,1498,-3.87,3.03,0.01,1000,1000,1000,1000
9972,1498,-3.88,3.07,0.12,1000,1000,1000,1000
10084,1498,-3.84,3.05,0.26,1000,1000,1000,1000
10178,1498,-3.86,3.09,0.24,1000,1000,1000,1000
10268,1498,-3.87,3.1,0.28,1000,1000,1000,1000
10358,1498,-3.89,3.11,0.19,1000,1000,1000,1000
10475,1498,-3.84,3.08,0.22,1000,1000,1000,1000
10568,1498,-3.87,3.07,0.06,1000,1000,1000,1000
10679,1498,-3.9,3.05,0.09,1000,1000,1000,1000
10813,1498,-3.92,3.03,0.18,1000,1000,1000,1000
10976,1498,-3.92,3.06,0.08,1000,1000,1000,1000
11091,1498,-3.92,3.07,0.23,1000,1000,1000,1000
11228,1498,-3.91,3.09,0.32,1000,1000,1000,1000
11316,1498,-3.91,3.08,0.3,1000,1000,1000,1000
11449,1498,-3.9,3.06,0.18,1000,1000,1000,1000
11546,1498,-3.93,3.05,0.21,1000,1000,1000,1000
11636,1498,-3.93,3.06,0.35,1000,1000,1000,1000
11724,1498,-3.89,3.07,0.1,1000,1000,1000,1000
11836,1498,-3.88,3.07,-0.04,1000,1000,1000,1000
11927,1498,-3.9,3.08,-0.07,1000,1000,1000,1000
12018,1498,-3.9,3.09,0.27,1000,1000,1000,1000
12109,1498,-3.91,3.04,0.31,1000,1000,1000,1000
12243,1498,-3.9,3.07,0.24,1000,1000,1000,1000
12355,1498,-3.87,3.1,0.22,1000,1000,1000,1000
12450,1498,-3.88,3.07,0.21,1000,1000,1000,1000
12587,1498,-3.89,3.06,0.19,1000,1000,1000,1000
12747,1498,-3.87,3.05,0.27,1000,1000,1000,1000
12882,1498,-3.86,3.06,0.21,1000,1000,1000,1000
12975,1498,-3.82,3.04,0.05,1000,1000,1000,1000
13090,1498,-3.84,3.08,0.22,1000,1000,1000,1000
13180,1498,-3.86,3.05,0.0,1000,1000,1000,1000
13296,1498,-3.9,3.05,0.15,1000,1000,1000,1000
13386,1498,-3.85,3.07,0.34,1000,1000,1000,1000
13479,1498,-3.85,3.06,0.01,1000,1000,1000,1000
13567,1498,-3.87,3.02,0.18,1000,1000,1000,1000
13679,1498,-3.85,3.03,0.15,1000,1000,1000,1000
13792,1498,-3.87,3.05,0.09,1000,1000,1000,1000
13907,1498,-3.89,3.04,0.41,1000,1000,1000,1000
14002,1498,-3.88,3.05,0.18,1000,1000,1000,1000
14094,1498,-3.87,3.07,0.13,1000,1000,1000,1000
14231,1498,-3.9,3.04,0.17,1000,1000,1000,1000
14319,1498,-3.9,3.04,0.2,1000,1000,1000,1000
14437,1498,-3.91,3.03,0.23,1000,1000,1000,1000
14529,1498,-3.89,3.04,0.21,1000,1000,1000,1000
14646,1498,-3.89,3.05,0.15,1000,1000,1000,1000
14777,1498,-3.89,3.07,0.13,1000,1000,1000,1000
14869,1498,-3.89,3.07,0.34,1000,1000,1000,1000
14964,1498,-3.89,3.07,0.15,1000,1000,1000,1000
15052,1498,-3.86,3.09,0.15,1000,1000,1000,1000
15144,1498,-3.85,3.07,0.24,1000,1000,1000,1000
15235,1498,-3.87,3.08,0.23,1000,1000,1000,1000
15369,1498,-3.87,3.07,0.14,1000,1000,1000,1000
15463,1498,-3.86,3.07,0.15,1000,1000,1000,1000
15556,1498,-3.86,3.06,0.35,1000,1000,1000,1000
15646,1498,-3.88,3.04,0.2,1000,1000,1000,1000
15738,1498,-3.87,3.09,0.2,1000,1000,1000,1000
15849,1498,-3.85,3.05,0.29,1000,1000,1000,1000
15942,1498,-3.87,3.05,0.08,1000,1000,1000,1000
16059,1498,-3.87,3.11,-0.01,1000,1000,1000,1000
16196,1499,-3.87,3.08,0.08,1000,1000,1000,1000
16287,1498,-3.91,3.06,0.24,1000,1000,1000,1000
16379,1498,-3.9,3.07,0.2,1000,1000,1000,1000
16470,1498,-3.9,3.06,0.34,1000,1000,1000,1000
16585,1498,-3.89,3.05,0.23,1000,1000,1000,1000
16678,1498,-3.89,3.09,0.15,1000,1000,1000,1000
16769,1498,-3.91,3.09,0.18,1000,1000,1000,1000
16859,1498,-3.91,3.08,0.4,1000,1000,1000,1000
16990,1498,-3.88,3.09,0.18,1000,1000,1000,1000
17086,1498,-3.86,3.09,0.2,1000,1000,1000,1000
17196,1498,-3.85,3.06,0.2,1000,1000,1000,1000
17288,1498,-3.88,3.04,0.19,1000,1000,1000,1000
17517,1498,-3.89,3.07,0.19,1000,1000,1000,1000
17768,1499,-3.9,3.1,0.26,1000,1000,1000,1000
17906,1498,-3.88,3.12,0.25,1000,1000,1000,1000
18021,1498,-3.88,3.09,0.24,1000,1000,1000,1000
18154,1498,-3.9,3.12,0.27,1000,1000,1000,1000
18269,1498,-3.92,3.06,0.13,1000,1000,1000,1000
18388,1498,-3.93,3.06,0.16,1000,1000,1000,1000
18567,1498,-3.87,3.07,0.18,1000,1000,1000,1000
18703,1498,-3.84,3.1,0.21,1000,1000,1000,1000
18843,1498,-3.86,3.08,0.18,1000,1000,1000,1000
18956,1498,-3.87,3.06,0.18,1000,1000,1000,1000
19136,1498,-3.89,3.07,0.08,1000,1000,1000,1000
19275,1498,-3.86,3.06,0.34,1000,1000,1000,1000
19457,1498,-3.89,3.08,0.18,1000,1000,1000,1000
19597,1498,-3.91,3.1,0.1,1000,1000,1000,1000
19734,1498,-3.88,3.1,0.2,1000,1000,1000,1000
19869,1498,-3.86,3.09,0.16,1000,1000,1000,1000
19986,1498,-3.85,3.12,0.24,1000,1000,1000,1000
20117,1498,-3.9,3.08,0.32,1000,1000,1000,1000
20255,1498,-3.91,3.05,0.23,1000,1000,1000,1000
20390,1498,-3.85,3.08,0.12,1000,1000,1000,1000
20506,1498,-3.84,3.08,0.26,1000,1000,1000,1000
20617,1498,-3.85,3.09,0.18,1000,1000,1000,1000
20735,1498,-3.88,3.07,0.18,1000,1000,1000,1000
20872,1498,-3.91,3.06,0.34,1000,1000,1000,1000
20988,1498,-3.9,3.06,0.28,1000,1000,1000,1000
21101,1498,-3.88,3.04,0.15,1000,1000,1000,1000
21213,1498,-3.91,3.03,0.09,1000,1000,1000,1000
21351,1498,-3.93,3.07,0.24,1000,1000,1000,1000
21463,1498,-3.86,3.08,0.26,1000,1000,1000,1000
21599,1498,-3.89,3.08,0.26,1000,1000,1000,1000
21739,1498,-3.87,3.08,0.08,1000,1000,1000,1000
21877,1498,-3.87,3.09,0.14,1000,1000,1000,1000
22015,1498,-3.87,3.08,0.32,1000,1000,1000,1000
22175,1498,-3.86,3.06,0.24,1000,1000,1000,1000
22286,1499,-3.87,3.06,0.16,1000,1000,1000,1000
22397,1498,-3.85,3.05,0.25,1000,1000,1000,1000
22509,1498,-3.88,3.04,0.19,1000,1000,1000,1000
22626,1498,-3.87,3.07,0.19,1000,1000,1000,1000
22764,1498,-3.91,3.07,0.25,1000,1000,1000,1000
22898,1499,-3.9,3.09,0.09,1000,1000,1000,1000
23040,1498,-3.91,3.06,0.15,1000,1000,1000,1000
23153,1498,-3.88,3.05,0.24,1000,1000,1000,1000
23287,1498,-3.87,3.05,0.18,1000,1000,1000,1000
23402,1498,-3.88,3.03,0.18,1000,1000,1000,1000
23513,1498,-3.86,3.03,0.02,1000,1000,1000,1000
23673,1498,-3.92,3.07,0.24,1000,1000,1000,1000
23789,1498,-3.88,3.07,0.24,1000,1000,1000,1000
23942,1498,-3.94,3.08,0.17,1000,1000,1000,1000
24059,1498,-3.97,3.08,0.39,1000,1000,1000,1000
24196,1498,-4.03,3.09,0.13,1000,1000,1000,1000
24376,1498,-3.91,3.1,0.24,1000,1000,1000,1000
24489,1498,-3.98,3.1,0.09,1000,1000,1000,1000
24622,1498,-4.1,3.13,0.27,1000,1000,1000,1000
24739,1498,-4.38,3.27,0.63,1000,1000,1000,1000
24876,1498,-5.14,3.1,-0.88,1000,1000,1000,1000
25008,1498,-7.06,3.64,3.11,1000,1000,1000,1000
25125,1498,-9.16,3.4,2.44,1000,1000,1000,1000
25282,1498,-13.14,3.13,0.55,1000,1000,1000,1000
25465,1498,-16.14,3.24,0.02,1000,1000,1000,1000
25603,1498,-16.86,3.29,-0.68,1000,1000,1000,1000
25737,1498,-17.09,3.35,-0.54,1000,1000,1000,1000
25874,1498,-16.87,3.44,0.06,1000,1000,1000,1000
26008,1498,-16.45,3.54,1.86,1000,1000,1000,1000
26124,1498,-14.68,3.48,2.4,1000,1000,1000,1000
26260,1498,-11.68,3.29,0.62,1000,1000,1000,1000
26374,1498,-9.72,3.32,0.37,1000,1000,1000,1000
26511,1499,-7.66,3.35,-0.16,1000,1000,1000,1000
26646,1498,-6.5,3.26,-0.95,1000,1000,1000,1000
26756,1498,-5.29,3.23,-1.8,1000,1000,1000,1000
26895,1498,-2.48,1.64,0.06,1000,1000,1000,1000
27031,1498,-3.08,2.31,-0.04,1000,1000,1000,1000
27194,1498,-3.59,2.83,0.19,1000,1000,1000,1000
27354,1498,-3.76,3.05,0.12,1000,1000,1000,1000
27625,1498,-3.89,3.1,0.15,1000,1000,1000,1000
27786,1498,-3.89,3.11,0.3,1000,1000,1000,1000
27949,1498,-3.91,3.12,0.21,1000,1000,1000,1000
28083,1498,-3.93,3.13,0.17,1000,1000,1000,1000
28197,1498,-3.92,3.11,0.13,1000,1000,1000,1000
28381,1498,-3.25,3.0,-1.58,1000,1000,1000,1000
28515,1498,-3.04,2.93,-0.95,1000,1000,1000,1000
28652,1498,-2.81,2.49,7.47,1000,1000,1000,1000
28768,1498,-1.11,3.13,2.41,1000,1000,1000,1000
28885,1498,2.11,3.27,0.58,1000,1000,1000,1000
29043,1498,5.85,3.09,-2.54,1000,1000,1000,1000
29156,1498,7.14,3.26,-0.57,1000,1000,1000,1000
29294,1498,7.32,3.35,0.14,1000,1000,1000,1000
29409,1498,7.11,3.23,0.34,1000,1000,1000,1000
29521,1498,7.16,3.41,-1.72,1000,1000,1000,1000
29702,1498,6.87,3.11,0.83,1000,1000,1000,1000
29813,1498,6.74,3.17,0.01,1000,1000,1000,1000
29931,1498,7.29,3.17,0.02,1000,1000,1000,1000
30068,1498,7.24,3.15,0.27,1000,1000,1000,1000
30233,1498,7.28,3.16,0.16,1000,1000,1000,1000
30365,1498,7.27,3.23,-0.27,1000,1000,1000,1000
30482,1498,6.27,3.2,-1.01,1000,1000,1000,1000
30662,1498,2.86,3.11,-0.27,1000,1000,1000,1000
30795,1498,-0.75,3.13,-0.59,1000,1000,1000,1000
30982,1498,-3.87,2.65,0.08,1000,1000,1000,1000
31115,1498,-3.86,2.97,0.24,1000,1000,1000,1000
31253,1498,-3.92,3.13,0.05,1000,1000,1000,1000
31384,1498,-3.88,3.16,0.29,1000,1000,1000,1000
31502,1498,-3.85,3.17,0.27,1000,1000,1000,1000
31613,1498,-3.85,3.16,0.27,1000,1000,1000,1000
31724,1499,-3.84,3.15,0.18,1000,1000,1000,1000
31838,1499,-3.86,3.11,0.27,1000,1000,1000,1000
31954,1498,-3.85,3.11,0.11,1000,1000,1000,1000
32063,1498,-3.82,3.14,0.28,1000,1000,1000,1000
32224,1498,-3.84,3.12,0.15,1000,1000,1000,1000
32362,1498,-3.86,3.15,0.15,1000,1000,1000,1000
32479,1498,-3.85,3.17,0.21,1000,1000,1000,1000
32619,1498,-3.84,3.12,0.27,1000,1000,1000,1000
32731,1498,-3.86,2.9,0.94,1000,1000,1000,1000
32847,1498,-4.1,2.62,2.03,1000,1000,1000,1000
32958,1498,-4.53,2.29,6.44,1000,1000,1000,1000
33090,1498,-4.36,1.54,8.53,1000,1000,1000,1000
33207,1498,-2.79,0.07,-0.61,1000,1000,1000,1000
33391,1498,-3.31,-3.66,-4.14,1000,1000,1000,1000
33502,1498,-3.5,-5.88,-4.45,1000,1000,1000,1000
33615,1498,-4.01,-7.1,-1.27,1000,1000,1000,1000
33751,1498,-3.95,-7.2,-0.57,1000,1000,1000,1000
33863,1498,-3.99,-7.39,-0.4,1000,1000,1000,1000
33981,1498,-4.19,-6.93,2.28,1000,1000,1000,1000
34112,1498,-4.12,-5.01,2.8,1000,1000,1000,1000
34252,1498,-4.0,-2.65,3.1,1000,1000,1000,1000
34390,1499,-3.72,-0.53,0.65,1000,1000,1000,1000
34505,1498,-3.79,1.0,0.6,1000,1000,1000,1000
34688,1498,-3.76,2.89,0.8,1000,1000,1000,1000
34821,1498,-3.7,2.79,0.04,1000,1000,1000,1000
34982,1498,-3.8,2.98,0.13,1000,1000,1000,1000
35119,1498,-3.85,3.06,0.22,1000,1000,1000,1000
35237,1498,-3.83,3.07,0.16,1000,1000,1000,1000
35374,1498,-3.82,3.09,0.31,1000,1000,1000,1000
35508,1498,-3.85,3.07,0.33,1000,1000,1000,1000
35620,1498,-3.87,3.06,0.18,1000,1000,1000,1000
35761,1498,-3.9,3.05,0.4,1000,1000,1000,1000
35878,1498,-3.89,3.09,0.07,1000,1000,1000,1000
36101,1498,-3.84,3.07,0.21,1000,1000,1000,1000
36218,1498,-3.85,3.06,0.18,1000,1000,1000,1000
36330,1498,-3.86,3.05,0.39,1000,1000,1000,1000
36461,1498,-3.85,3.13,0.18,1000,1000,1000,1000
36576,1498,-3.88,3.18,-0.6,1000,1000,1000,1000
36739,1498,-4.33,3.42,-1.89,1000,1000,1000,1000
36873,1498,-4.22,5.27,-4.6,1000,1000,1000,1000
37010,1499,-3.77,8.05,-0.1,1000,1000,1000,1000
37142,1498,-3.87,11.59,0.98,1000,1000,1000,1000
37259,1498,-4.06,14.34,0.31,1000,1000,1000,1000
37393,1498,-4.07,18.16,0.69,1000,1000,1000,1000
37509,1498,-4.09,19.36,0.44,1000,1000,1000,1000
37642,1498,-4.19,19.84,-0.63,1000,1000,1000,1000
37819,1498,-4.09,19.54,0.39,1000,1000,1000,1000
37939,1498,-4.2,19.54,-1.53,1000,1000,1000,1000
38074,1498,-4.25,19.41,-1.79,1000,1000,1000,1000
38190,1498,-4.12,19.75,-0.19,1000,1000,1000,1000
38303,1498,-4.05,19.82,0.11,1000,1000,1000,1000
38439,1498,-4.13,19.9,-0.21,1000,1000,1000,1000
38557,1498,-4.04,20.04,0.65,1000,1000,1000,1000
38664,1498,-4.11,19.73,-0.21,1000,1000,1000,1000
38802,1498,-4.08,19.17,-0.1,1000,1000,1000,1000
38938,1498,-4.11,17.23,-0.72,1000,1000,1000,1000
39121,1498,-4.17,11.76,-1.39,1000,1000,1000,1000
39253,1498,-3.89,8.03,-0.02,1000,1000,1000,1000
39390,1498,-3.87,5.78,-1.47,1000,1000,1000,1000
39528,1498,-4.05,3.23,0.13,1000,1000,1000,1000
39640,1498,-4.11,3.03,-0.11,1000,1000,1000,1000
39753,1498,-3.98,3.14,0.15,1000,1000,1000,1000
39913,1498,-3.87,3.1,0.11,1000,1000,1000,1000
40028,1498,-3.88,3.14,0.15,1000,1000,1000,1000
40168,1498,-3.88,3.15,0.15,1000,1000,1000,1000
40304,1498,-3.89,3.16,0.21,1000,1000,1000,1000
40421,1498,-3.86,3.17,0.17,1000,1000,1000,1000
40536,1498,-3.86,3.14,0.24,1000,1000,1000,1000
40669,1498,-3.86,3.17,0.21,1000,1000,1000,1000
40787,1498,-3.88,3.16,0.21,1000,1000,1000,1000
40898,1498,-3.87,3.15,-0.82,1000,1000,1000,1000
41061,1498,-3.54,2.85,-4.47,1000,1000,1000,1000
41197,1498,-3.55,2.83,-8.66,1000,1000,1000,1000
41330,1498,-3.1,2.58,-22.24,1000,1000,1000,1000
41450,1498,-4.03,3.31,-10.45,1000,1000,1000,1000
41586,1498,-4.64,3.78,1.25,1000,1000,1000,1000
41723,1498,-4.25,3.79,4.69,1000,1000,1000,1000
41839,1498,-4.49,4.26,15.5,1000,1000,1000,1000
41951,1498,-3.52,4.07,22.97,1000,1000,1000,1000
42084,1498,-2.42,2.56,7.08,1000,1000,1000,1000
42202,1498,-3.91,1.99,0.88,1000,1000,1000,1000
42336,1498,-3.29,1.8,-2.11,1000,1000,1000,1000
42496,1498,-4.33,4.06,2.18,1000,1000,1000,1000
42634,1498,-4.13,3.59,0.29,1000,1000,1000,1000
42752,1498,-3.96,3.41,0.21,1000,1000,1000,1000
42908,1498,-3.86,3.3,0.27,1000,1000,1000,1000
43023,1498,-3.82,3.25,0.15,1000,1000,1000,1000
43163,1498,-3.79,3.21,0.07,1000,1000,1000,1000
43274,1498,-3.83,3.21,0.27,1000,1000,1000,1000
43412,1498,-3.86,3.2,0.24,1000,1000,1000,1000
43544,1498,-3.86,3.24,0.07,1000,1000,1000,1000
43664,1498,-3.84,3.24,0.22,1000,1000,1000,1000
43795,1498,-3.8,3.26,0.11,1000,1000,1000,1000
43932,1498,-3.81,3.23,0.16,1000,1000,1000,1000
44094,1498,-3.83,3.23,-0.02,1000,1000,1000,1000
44227,1498,-3.84,3.19,0.27,1000,1000,1000,1000
44365,1498,-3.87,3.23,0.04,1000,1000,1000,1000
44482,1498,-3.81,3.19,0.41,1000,1000,1000,1000
44620,1498,-3.8,3.21,0.19,1000,1000,1000,1000
44754,1498,-3.78,3.23,0.3,1000,1000,1000,1000
44891,1498,-3.78,3.19,0.06,1000,1000,1000,1000
45029,1498,-3.8,3.19,0.18,1000,1000,1000,1000
45166,1498,-3.82,3.2,0.2,1000,1000,1000,1000
45300,1498,-3.8,3.22,0.37,1000,1000,1000,1000
45441,1498,-3.82,3.22,0.21,1000,1000,1000,1000
45594,1498,-3.77,3.21,-0.03,1000,1000,1000,1000
45709,1498,-3.76,3.21,0.08,1000,1000,1000,1000
45827,1498,-3.76,3.23,0.17,1000,1000,1000,1000
45938,1498,-3.79,3.22,0.26,1000,1000,1000,1000
46075,1498,-3.81,3.21,0.07,1000,1000,1000,1000
46213,1498,-3.82,3.21,0.15,1000,1000,1000,1000
46326,1498,-3.8,3.22,0.23,1000,1000,1000,1000
46462,1498,-3.84,3.23,0.18,1000,1000,1000,1000
46580,1498,-3.84,3.21,-0.08,1000,1000,1000,1000
46763,1498,-3.85,3.22,0.12,1000,1000,1000,1000
46874,1498,-3.86,3.24,0.06,1000,1000,1000,1000
46985,1498,-3.83,3.21,0.12,1000,1000,1000,1000
47124,1498,-3.81,3.21,0.08,1000,1000,1000,1000
47240,1498,-3.79,3.22,0.14,1000,1000,1000,1000
47377,1498,-3.84,3.23,0.08,1000,1000,1000,1000
47557,1498,-3.84,3.25,0.2,1000,1000,1000,1000
47675,1498,-3.85,3.21,0.11,1000,1000,1000,1000
47813,1498,-3.86,3.17,0.22,1000,1000,1000,1000
47970,1498,-3.81,3.2,0.18,1000,1000,1000,1000
48066,1498,-3.8,3.22,0.24,1000,1000,1000,1000
48179,1498,-3.82,3.21,0.26,1000,1000,1000,1000
48296,1498,-3.8,3.2,0.19,1000,1000,1000,1000
48406,1498,-3.81,3.2,0.15,1000,1000,1000,1000
48535,1498,-3.79,3.22,0.21,1000,1000,1000,1000
48653,1498,-3.79,3.21,0.23,1000,1000,1000,1000
48764,1498,-3.8,3.22,0.25,1000,1000,1000,1000
48908,1498,-3.82,3.22,0.39,1000,1000,1000,1000
49089,1498,-3.81,3.2,0.21,1000,1000,1000,1000
49226,1498,-3.79,3.16,0.21,1000,1000,1000,1000
49341,1498,-3.79,3.19,0.21,1000,1000,1000,1000
49481,1498,-3.77,3.2,0.16,1000,1000,1000,1000
49590,1498,-3.75,3.21,0.28,1000,1000,1000,1000
49727,1498,-3.8,3.25,0.28,1000,1000,1000,1000
50003,1498,-3.83,3.23,0.11,1000,1000,1000,1000
50139,1499,-3.83,3.19,0.24,1000,1000,1000,1000
50249,1498,-3.8,3.21,0.24,1000,1000,1000,1000
50365,1499,-3.83,3.24,0.15,1000,1000,1000,1000
50472,1498,-3.83,3.21,0.2,1000,1000,1000,1000
50584,1498,-3.85,3.22,0.2,1000,1000,1000,1000
50724,1498,-3.84,3.19,0.16,1000,1000,1000,1000
50839,1498,-3.84,3.2,0.31,1000,1000,1000,1000
50977,1498,-3.86,3.2,0.27,1000,1000,1000,1000
51107,1498,-3.81,3.2,0.02,1000,1000,1000,1000
51225,1498,-3.84,3.16,0.15,1000,1000,1000,1000
51340,1498,-3.83,3.18,0.27,1000,1000,1000,1000
51451,1498,-3.83,3.18,0.27,1000,1000,1000,1000
51657,1498,-3.8,3.23,0.27,1000,1000,1000,1000
51840,1498,-3.81,3.21,0.14,1000,1000,1000,1000
51980,1498,-3.79,3.19,0.08,1000,1000,1000,1000
52141,1498,-3.8,3.2,0.24,1000,1000,1000,1000
52280,1498,-3.8,3.24,0.26,1000,1000,1000,1000
52415,1498,-3.82,3.21,0.17,1000,1000,1000,1000
52527,1498,-3.81,3.22,0.17,1000,1000,1000,1000
52667,1498,-3.82,3.17,0.2,1000,1000,1000,1000
52782,1498,-3.83,3.17,0.1,1000,1000,1000,1000
52898,1498,-3.84,3.2,0.21,1000,1000,1000,1000
53007,1498,-3.84,3.18,0.17,1000,1000,1000,1000
53122,1498,-3.84,3.18,0.12,1000,1000,1000,1000
53240,1498,-3.83,3.21,0.15,1000,1000,1000,1000
53350,1498,-3.82,3.23,0.28,1000,1000,1000,1000
53466,1498,-3.83,3.22,0.16,1000,1000,1000,1000
53585,1498,-3.82,3.2,0.07,1000,1000,1000,1000
53694,1498,-3.8,3.22,0.13,1000,1000,1000,1000
53814,1498,-3.77,3.23,0.14,1000,1000,1000,1000
53943,1498,-3.78,3.22,0.28,1000,1000,1000,1000
54129,1498,-3.82,3.2,0.06,1000,1000,1000,1000
54258,1498,-3.78,3.17,0.24,1000,1000,1000,1000
54371,1498,-3.8,3.22,0.23,1000,1000,1000,1000
54503,1498,-3.81,3.17,0.26,1000,1000,1000,1000
54621,1498,-3.78,3.19,0.08,1000,1000,1000,1000
54734,1498,-3.76,3.2,0.21,1000,1000,1000,1000
54873,1499,-3.79,3.17,0.25,1000,1000,1000,1000
54987,1498,-3.83,3.19,0.25,1000,1000,1000,1000
55102,1498,-3.79,3.2,0.05,1000,1000,1000,1000
55236,1498,-3.83,3.22,0.08,1000,1000,1000,1000
55419,1498,-3.81,3.18,0.08,1000,1000,1000,1000
55557,1498,-3.79,3.19,0.15,1000,1000,1000,1000
55671,1498,-3.8,3.19,0.2,1000,1000,1000,1000
55809,1498,-3.79,3.19,0.11,1000,1000,1000,1000
55946,1498,-3.79,3.19,0.19,1000,1000,1000,1000
56084,1498,-3.83,3.18,0.15,1000,1000,1000,1000
56215,1498,-3.78,3.21,0.23,1000,1000,1000,1000
56352,1498,-3.79,3.19,0.35,1000,1000,1000,1000
56486,1498,-3.76,3.22,0.08,1000,1000,1000,1000
56617,1498,-3.77,3.19,0.11,1000,1000,1000,1000
56736,1498,-3.81,3.18,0.16,1000,1000,1000,1000
56921,1498,-3.81,3.2,0.31,1000,1000,1000,1000
57055,1498,-3.82,3.22,0.11,1000,1000,1000,1000
57281,1498,-3.82,3.21,0.24,1000,1000,1000,1000
57419,1498,-3.84,3.22,0.06,1000,1000,1000,1000
57532,1498,-3.82,3.2,0.14,1000,1000,1000,1000
57645,1498,-3.82,3.25,0.18,1000,1000,1000,1000
57800,1498,-3.82,3.21,0.21,1000,1000,1000,1000
57911,1498,-3.84,3.25,0.22,1000,1000,1000,1000
58027,1498,-3.82,3.23,0.36,1000,1000,1000,1000
58161,1498,-3.81,3.2,0.23,1000,1000,1000,1000
58298,1498,-3.82,3.22,0.18,1000,1000,1000,1000
58435,1498,-3.81,3.19,0.02,1000,1000,1000,1000
58573,1498,-3.86,3.2,0.12,1000,1000,1000,1000
58688,1498,-3.83,3.2,0.18,1000,1000,1000,1000
58803,1498,-3.82,3.23,0.18,1000,1000,1000,1000
58933,1498,-3.84,3.18,0.2,1000,1000,1000,1000
59049,1498,-3.81,3.18,0.16,1000,1000,1000,1000
59160,1498,-3.83,3.19,0.11,1000,1000,1000,1000
59277,1498,-3.84,3.19,0.06,1000,1000,1000,1000
59382,1498,-3.8,3.2,0.24,1000,1000,1000,1000
59502,1498,-3.82,3.21,0.43,1000,1000,1000,1000
59631,1498,-3.86,3.2,0.08,1000,1000,1000,1000
59837,1498,-3.84,3.2,0.1,1000,1000,1000,1000
59974,1498,-3.84,3.21,0.18,1000,1000,1000,1000
60112,1498,-3.83,3.2,-0.07,1000,1000,1000,1000
60226,1498,-3.8,3.22,0.11,1000,1000,1000,1000
60365,1498,-3.82,3.19,0.18,1000,1000,1000,1000
60474,1498,-3.83,3.22,0.23,1000,1000,1000,1000
60612,1498,-3.82,3.21,0.19,1000,1000,1000,1000
60752,1498,-3.83,3.21,0.05,1000,1000,1000,1000
60867,1499,-3.8,3.24,0.16,1000,1000,1000,1000
61005,1498,-3.83,3.21,0.33,1000,1000,1000,1000
61143,1498,-3.81,3.24,0.19,1000,1000,1000,1000
61254,1498,-3.83,3.21,0.18,1000,1000,1000,1000
61391,1498,-3.81,3.21,0.11,1000,1000,1000,1000
61527,1499,-3.81,3.21,0.18,1000,1000,1000,1000
61636,1498,-3.82,3.23,0.2,1000,1000,1000,1000
61767,1498,-3.78,3.25,0.11,1000,1000,1000,1000
61885,1498,-3.8,3.23,0.2,1000,1000,1000,1000
62022,1498,-3.83,3.24,0.33,1000,1000,1000,1000
62133,1498,-3.79,3.23,0.05,1000,1000,1000,1000
62250,1499,-3.78,3.21,0.28,1000,1000,1000,1000
62379,1498,-3.8,3.21,0.24,1000,1000,1000,1000
62497,1498,-3.83,3.23,0.21,1000,1000,1000,1000
62635,1498,-3.79,3.22,0.18,1000,1000,1000,1000
62772,1498,-3.83,3.19,0.3,1000,1000,1000,1000
62886,1498,-3.83,3.15,0.17,1000,1000,1000,1000
63025,1498,-3.81,3.19,0.18,1000,1000,1000,1000
63158,1498,-3.8,3.19,0.12,1000,1000,1000,1000
63296,1498,-3.81,3.19,0.23,1000,1000,1000,1000
63429,1498,-3.84,3.23,0.22,1000,1000,1000,1000
63568,1498,-3.8,3.2,0.08,1000,1000,1000,1000
63732,1498,-3.79,3.23,0.25,1000,1000,1000,1000
63867,1498,-3.8,3.2,0.28,1000,1000,1000,1000
63983,1498,-3.78,3.23,0.1,1000,1000,1000,1000
64116,1498,-3.82,3.22,0.14,1000,1000,1000,1000
64250,1498,-3.82,3.23,0.05,1000,1000,1000,1000
64365,1498,-3.83,3.21,0.05,1000,1000,1000,1000
64480,1498,-3.83,3.24,0.15,1000,1000,1000,1000
64594,1498,-3.83,3.25,0.25,1000,1000,1000,1000
64728,1498,-3.85,3.22,0.02,1000,1000,1000,1000
64843,1498,-3.84,3.2,0.29,1000,1000,1000,1000
64978,1499,-3.81,3.18,0.23,1000,1000,1000,1000
65140,1498,-3.82,3.17,0.15,1000,1000,1000,1000
65275,1498,-3.85,3.18,0.04,1000,1000,1000,1000
65391,1498,-3.83,3.22,0.11,1000,1000,1000,1000
65575,1498,-3.81,3.21,0.08,1000,1000,1000,1000
65706,1498,-3.84,3.22,0.06,1000,1000,1000,1000
65823,1498,-3.86,3.21,0.28,1000,1000,1000,1000
65937,1498,-3.84,3.2,0.21,1000,1000,1000,1000
66074,1498,-3.86,3.18,0.31,1000,1000,1000,1000
66187,1498,-3.85,3.17,0.24,1000,1000,1000,1000
66348,1498,-3.8,3.22,0.09,1000,1000,1000,1000
66460,1498,-3.81,3.21,0.17,1000,1000,1000,1000
66599,1498,-3.83,3.22,0.04,1000,1000,1000,1000
66738,1498,-3.81,3.23,0.24,1000,1000,1000,1000
66869,1498,-3.78,3.24,0.14,1000,1000,1000,1000
66983,1498,-3.78,3.24,0.26,1000,1000,1000,1000
67101,1498,-3.81,3.22,0.15,1000,1000,1000,1000
67210,1498,-3.82,3.23,0.11,1000,1000,1000,1000
67344,1498,-3.78,3.2,0.06,1000,1000,1000,1000
67461,1498,-3.79,3.21,0.28,1000,1000,1000,1000
67598,1498,-3.8,3.21,0.22,1000,1000,1000,1000
67709,1498,-3.81,3.21,0.22,1000,1000,1000,1000
67827,1498,-3.84,3.22,0.08,1000,1000,1000,1000
67960,1498,-3.85,3.23,0.14,1000,1000,1000,1000
68099,1498,-3.87,3.23,0.1,1000,1000,1000,1000
68237,1498,-3.8,3.21,0.13,1000,1000,1000,1000
68375,1498,-3.83,3.23,0.06,1000,1000,1000,1000
68487,1498,-3.85,3.21,0.23,1000,1000,1000,1000
68604,1498,-3.84,3.19,0.21,1000,1000,1000,1000
68738,1498,-3.8,3.19,0.21,1000,1000,1000,1000
68856,1498,-3.81,3.19,0.13,1000,1000,1000,1000
68973,1498,-3.82,3.19,0.02,1000,1000,1000,1000
69082,1498,-3.79,3.23,0.13,1000,1000,1000,1000
69221,1498,-3.79,3.19,0.25,1000,1000,1000,1000
69337,1498,-3.8,3.22,0.18,1000,1000,1000,1000
69470,1498,-3.78,3.21,0.2,1000,1000,1000,1000
69608,1498,-3.81,3.24,0.25,1000,1000,1000,1000
69746,1498,-3.81,3.22,0.24,1000,1000,1000,1000
69881,1498,-3.83,3.22,0.22,1000,1000,1000,1000
70019,1498,-3.79,3.22,0.16,1000,1000,1000,1000
70135,1498,-3.78,3.22,0.3,1000,1000,1000,1000
70250,1498,-3.79,3.21,0.21,1000,1000,1000,1000
70379,1498,-3.83,3.22,0.21,1000,1000,1000,1000
70492,1498,-3.8,3.22,-0.03,1000,1000,1000,1000
70632,1498,-3.85,3.25,0.17,1000,1000,1000,1000
70813,1498,-3.86,3.24,0.11,1000,1000,1000,1000
70925,1498,-3.84,3.23,0.24,1000,1000,1000,1000
71062,1498,-3.81,3.21,0.17,1000,1000,1000,1000
71201,1498,-3.84,3.24,0.18,1000,1000,1000,1000
71331,1498,-3.79,3.26,0.26,1000,1000,1000,1000
71467,1498,-3.83,3.25,0.13,1000,1000,1000,1000
71582,1498,-3.83,3.2,0.01,1000,1000,1000,1000
71693,1498,-3.8,3.22,0.15,1000,1000,1000,1000
71830,1498,-3.8,3.23,0.27,1000,1000,1000,1000
71988,1498,-3.82,3.23,0.15,1000,1000,1000,1000
72105,1498,-3.82,3.22,0.14,1000,1000,1000,1000
72220,1498,-3.81,3.2,0.15,1000,1000,1000,1000
72357,1498,-3.79,3.23,0.13,1000,1000,1000,1000
72472,1498,-3.77,3.23,0.11,1000,1000,1000,1000
72608,1498,-3.82,3.2,0.2,1000,1000,1000,1000
72746,1498,-3.78,3.16,0.15,1000,1000,1000,1000
72974,1498,-3.85,3.19,0.21,1000,1000,1000,1000
73105,1498,-3.83,3.22,0.21,1000,1000,1000,1000
73223,1498,-3.84,3.18,0.24,1000,1000,1000,1000
73360,1498,-3.83,3.23,0.21,1000,1000,1000,1000
73473,1498,-3.84,3.22,0.13,1000,1000,1000,1000
73589,1498,-3.84,3.23,0.27,1000,1000,1000,1000
73723,1499,-3.82,3.2,0.22,1000,1000,1000,1000
73821,1499,-3.79,3.2,0.23,1000,1000,1000,1000
74000,1498,-3.79,3.23,0.08,1000,1000,1000,1000
74138,1498,-3.81,3.24,0.06,1000,1000,1000,1000
74276,1498,-3.83,3.22,0.03,1000,1000,1000,1000
74413,1498,-3.82,3.24,0.29,1000,1000,1000,1000
74550,1498,-3.8,3.22,0.21,1000,1000,1000,1000
74686,1498,-3.81,3.23,0.25,1000,1000,1000,1000
74804,1499,-3.81,3.24,0.16,1000,1000,1000,1000
74961,1498,-3.82,3.22,0.37,1000,1000,1000,1000
75121,1498,-3.78,3.23,0.21,1000,1000,1000,1000
75230,1498,-3.78,3.24,0.19,1000,1000,1000,1000
75364,1498,-3.82,3.23,0.09,1000,1000,1000,1000
75482,1498,-3.8,3.22,0.18,1000,1000,1000,1000
75597,1498,-3.82,3.2,0.22,1000,1000,1000,1000
75731,1498,-3.84,3.21,0.25,1000,1000,1000,1000
75844,1498,-3.82,3.21,0.18,1000,1000,1000,1000
75982,1498,-3.82,3.21,0.16,1000,1000,1000,1000
76120,1498,-3.84,3.21,0.11,1000,1000,1000,1000
76235,1498,-3.79,3.19,0.15,1000,1000,1000,1000
76368,1498,-3.82,3.21,0.18,1000,1000,1000,1000
76502,1498,-3.83,3.22,0.03,1000,1000,1000,1000
76616,1498,-3.82,3.22,0.2,1000,1000,1000,1000
76734,1498,-3.82,3.21,0.16,1000,1000,1000,1000
76847,1498,-3.82,3.23,0.27,1000,1000,1000,1000
76984,1498,-3.8,3.2,0.23,1000,1000,1000,1000
77123,1498,-3.81,3.17,0.22,1000,1000,1000,1000
77259,1498,-3.76,3.19,0.2,1000,1000,1000,1000
77372,1498,-3.76,3.19,0.24,1000,1000,1000,1000
77507,1498,-3.81,3.21,0.18,1000,1000,1000,1000
77623,1498,-3.8,3.24,0.13,1000,1000,1000,1000
77761,1498,-3.8,3.21,0.22,1000,1000,1000,1000
77940,1498,-3.81,3.24,0.07,1000,1000,1000,1000
78055,1498,-3.79,3.22,0.34,1000,1000,1000,1000
78190,1498,-3.81,3.27,0.06,1000,1000,1000,1000
78331,1498,-3.78,3.24,0.16,1000,1000,1000,1000
78466,1498,-3.78,3.21,0.15,1000,1000,1000,1000
78581,1498,-3.79,3.2,0.32,1000,1000,1000,1000
78717,1498,-3.75,3.19,0.29,1000,1000,1000,1000
78852,1498,-3.78,3.23,0.05,1000,1000,1000,1000
78985,1498,-3.75,3.23,0.11,1000,1000,1000,1000
79103,1498,-3.77,3.22,0.34,1000,1000,1000,1000
79212,1498,-3.81,3.2,0.09,1000,1000,1000,1000
79352,1498,-3.84,3.17,0.15,1000,1000,1000,1000
79491,1498,-3.82,3.2,0.3,1000,1000,1000,1000
79627,1498,-3.82,3.2,0.05,1000,1000,1000,1000
79765,1498,-3.82,3.21,0.2,1000,1000,1000,1000
79900,1498,-3.84,3.22,0.15,1000,1000,1000,1000
80036,1498,-3.8,3.22,0.21,1000,1000,1000,1000
80154,1498,-3.78,3.24,0.24,1000,1000,1000,1000
80267,1499,-3.8,3.23,0.01,1000,1000,1000,1000
80382,1498,-3.8,3.25,0.19,1000,1000,1000,1000
80520,1498,-3.75,3.23,0.2,1000,1000,1000,1000
80657,1498,-3.78,3.24,0.13,1000,1000,1000,1000
80791,1498,-3.83,3.21,0.08,1000,1000,1000,1000
80906,1498,-3.81,3.2,0.08,1000,1000,1000,1000
81046,1498,-3.8,3.19,0.34,1000,1000,1000,1000
81158,1498,-3.81,3.19,0.08,1000,1000,1000,1000
81295,1498,-3.8,3.17,0.26,1000,1000,1000,1000
81409,1498,-3.87,3.22,0.21,1000,1000,1000,1000
81521,1498,-3.84,3.17,0.09,1000,1000,1000,1000
81704,1498,-3.83,3.23,0.13,1000,1000,1000,1000
81841,1498,-3.84,3.24,0.16,1000,1000,1000,1000
81974,1498,-3.84,3.21,0.15,1000,1000,1000,1000
82092,1498,-3.82,3.21,0.09,1000,1000,1000,1000
82230,1498,-3.84,3.2,0.25,1000,1000,1000,1000
82368,1498,-3.82,3.19,0.14,1000,1000,1000,1000
82501,1498,-3.81,3.23,0.21,1000,1000,1000,1000
82619,1498,-3.83,3.22,0.19,1000,1000,1000,1000
82801,1498,-3.84,3.21,0.02,1000,1000,1000,1000
82941,1498,-3.81,3.24,0.08,1000,1000,1000,1000
83077,1498,-3.78,3.24,0.21,1000,1000,1000,1000
83214,1498,-3.8,3.25,0.18,1000,1000,1000,1000
83354,1498,-3.8,3.23,0.31,1000,1000,1000,1000
83512,1498,-3.79,3.23,0.21,1000,1000,1000,1000
83623,1498,-3.83,3.21,0.22,1000,1000,1000,1000
83740,1498,-3.84,3.22,0.22,1000,1000,1000,1000
83878,1498,-3.84,3.21,0.05,1000,1000,1000,1000
84016,1498,-3.83,3.24,0.1,1000,1000,1000,1000
84218,1498,-3.82,3.24,0.12,1000,1000,1000,1000
84334,1498,-3.82,3.23,0.29,1000,1000,1000,1000
84443,1498,-3.83,3.23,0.28,1000,1000,1000,1000
84563,1498,-3.8,3.25,0.24,1000,1000,1000,1000
84699,1498,-3.82,3.24,0.33,1000,1000,1000,1000
84832,1498,-3.8,3.23,0.3,1000,1000,1000,1000
85036,1498,-3.81,3.22,0.14,1000,1000,1000,1000
85176,1498,-3.82,3.22,0.25,1000,1000,1000,1000
85293,1498,-3.8,3.22,0.21,1000,1000,1000,1000
85449,1498,-3.81,3.19,0.09,1000,1000,1000,1000
85679,1498,-3.8,3.2,0.09,1000,1000,1000,1000
85813,1498,-3.79,3.2,0.0,1000,1000,1000,1000
85926,1498,-3.78,3.19,0.12,1000,1000,1000,1000
86042,1498,-3.81,3.17,0.31,1000,1000,1000,1000
86178,1498,-3.79,3.24,0.24,1000,1000,1000,1000
86316,1498,-3.82,3.23,0.06,1000,1000,1000,1000
86427,1498,-3.81,3.21,0.05,1000,1000,1000,1000
86563,1499,-3.79,3.2,0.27,1000,1000,1000,1000
86676,1498,-3.79,3.23,0.18,1000,1000,1000,1000
86859,1498,-3.8,3.24,0.06,1000,1000,1000,1000
86997,1498,-3.79,3.24,0.35,1000,1000,1000,1000
87176,1498,-3.78,3.23,0.2,1000,1000,1000,1000
87316,1498,-3.8,3.19,0.27,1000,1000,1000,1000
87494,1498,-3.82,3.22,0.38,1000,1000,1000,1000
87634,1498,-3.83,3.23,0.18,1000,1000,1000,1000
87817,1498,-3.82,3.19,0.09,1000,1000,1000,1000
87952,1498,-3.8,3.22,0.19,1000,1000,1000,1000
88065,1498,-3.78,3.22,0.19,1000,1000,1000,1000
88182,1499,-3.83,3.22,0.25,1000,1000,1000,1000
88320,1498,-3.84,3.21,0.19,1000,1000,1000,1000
88458,1498,-3.8,3.21,0.21,1000,1000,1000,1000
88569,1498,-3.82,3.22,0.27,1000,1000,1000,1000
88706,1498,-3.83,3.22,0.15,1000,1000,1000,1000
88822,1498,-3.78,3.19,0.28,1000,1000,1000,1000
88960,1498,-3.82,3.19,0.11,1000,1000,1000,1000
89072,1498,-3.84,3.22,0.47,1000,1000,1000,1000
89206,1498,-3.85,3.19,0.23,1000,1000,1000,1000
89324,1498,-3.85,3.24,0.31,1000,1000,1000,1000
89462,1498,-3.81,3.24,0.19,1000,1000,1000,1000
89595,1498,-3.81,3.26,0.08,1000,1000,1000,1000
89732,1498,-3.79,3.23,0.2,1000,1000,1000,1000
89870,1498,-3.81,3.23,0.24,1000,1000,1000,1000
89982,1498,-3.81,3.25,0.3,1000,1000,1000,1000
90121,1498,-3.81,3.26,0.25,1000,1000,1000,1000
90259,1498,-3.81,3.22,0.15,1000,1000,1000,1000
90396,1498,-3.83,3.23,0.15,1000,1000,1000,1000
90509,1498,-3.79,3.21,0.14,1000,1000,1000,1000
90689,1498,-3.82,3.23,0.25,1000,1000,1000,1000
90798,1498,-3.79,3.24,0.34,1000,1000,1000,1000
90936,1498,-3.79,3.24,0.49,1000,1000,1000,1000
91049,1498,-3.83,3.24,0.4,1000,1000,1000,1000
91189,1498,-3.82,3.19,0.2,1000,1000,1000,1000
91325,1498,-3.79,3.17,0.16,1000,1000,1000,1000
91462,1498,-3.82,3.22,0.23,1000,1000,1000,1000
91573,1498,-3.83,3.22,0.02,1000,1000,1000,1000
91713,1498,-3.84,3.2,0.34,1000,1000,1000,1000
91822,1498,-3.84,3.21,0.19,1000,1000,1000,1000
91958,1498,-3.81,3.22,0.09,1000,1000,1000,1000
92142,1498,-3.77,3.22,0.18,1000,1000,1000,1000
92257,1498,-3.79,3.21,0.23,1000,1000,1000,1000
92375,1498,-3.81,3.24,0.07,1000,1000,1000,1000
92510,1498,-3.83,3.22,0.29,1000,1000,1000,1000
92650,1498,-3.81,3.24,0.08,1000,1000,1000,1000
92829,1498,-3.8,3.22,0.43,1000,1000,1000,1000
92946,1498,-3.85,3.24,0.27,1000,1000,1000,1000
93084,1498,-3.81,3.22,0.12,1000,1000,1000,1000
93224,1498,-3.76,3.21,0.24,1000,1000,1000,1000
93358,1498,-3.78,3.22,0.19,1000,1000,1000,1000
93565,1498,-3.78,3.21,0.25,1000,1000,1000,1000
93678,1498,-3.79,3.21,0.21,1000,1000,1000,1000
93816,1498,-3.79,3.2,0.21,1000,1000,1000,1000
93954,1498,-3.81,3.23,0.25,1000,1000,1000,1000
94065,1498,-3.77,3.23,0.06,1000,1000,1000,1000
94204,1498,-3.76,3.22,0.2,1000,1000,1000,1000
94316,1498,-3.77,3.21,0.22,1000,1000,1000,1000
94434,1498,-3.77,3.22,0.14,1000,1000,1000,1000
94546,1498,-3.79,3.22,0.2,1000,1000,1000,1000
94725,1498,-3.79,3.22,0.19,1000,1000,1000,1000
94861,1498,-3.77,3.23,0.03,1000,1000,1000,1000
94997,1498,-3.81,3.21,0.16,1000,1000,1000,1000
95110,1498,-3.8,3.2,0.22,1000,1000,1000,1000
95225,1498,-3.81,3.23,0.11,1000,1000,1000,1000
95343,1498,-3.79,3.24,0.41,1000,1000,1000,1000
95453,1498,-3.77,3.22,0.26,1000,1000,1000,1000
95571,1498,-3.8,3.22,0.1,1000,1000,1000,1000
95705,1498,-3.81,3.23,0.19,1000,1000,1000,1000
95842,1498,-3.83,3.25,0.12,1000,1000,1000,1000
95980,1498,-3.78,3.25,0.11,1000,1000,1000,1000
96160,1498,-3.8,3.23,0.09,1000,1000,1000,1000
96271,1498,-3.83,3.22,0.09,1000,1000,1000,1000
96389,1498,-3.83,3.24,0.16,1000,1000,1000,1000
96523,1498,-3.82,3.22,0.21,1000,1000,1000,1000
96656,1498,-3.82,3.2,0.15,1000,1000,1000,1000
96776,1498,-3.82,3.22,0.12,1000,1000,1000,1000
96908,1498,-3.79,3.21,0.3,1000,1000,1000,1000
97085,1498,-3.79,3.19,0.18,1000,1000,1000,1000
97243,1498,-3.84,3.21,0.07,1000,1000,1000,1000
97474,1498,-3.78,3.21,0.13,1000,1000,1000,1000
97635,1498,-3.81,3.21,0.15,1000,1000,1000,1000
97749,1498,-3.82,3.21,0.07,1000,1000,1000,1000
97860,1498,-3.79,3.19,0.11,1000,1000,1000,1000
97978,1499,-3.82,3.19,0.25,1000,1000,1000,1000
98093,1498,-3.83,3.21,0.14,1000,1000,1000,1000
98248,1498,-3.8,3.23,0.28,1000,1000,1000,1000
98366,1498,-3.8,3.2,0.27,1000,1000,1000,1000
98504,1498,-3.83,3.2,0.24,1000,1000,1000,1000
98641,1498,-3.85,3.19,0.17,1000,1000,1000,1000
98753,1499,-3.81,3.22,0.05,1000,1000,1000,1000
98894,1498,-3.8,3.22,0.06,1000,1000,1000,1000
99030,1498,-3.8,3.23,0.11,1000,1000,1000,1000
99168,1498,-3.8,3.22,0.12,1000,1000,1000,1000
99279,1498,-3.82,3.19,0.15,1000,1000,1000,1000
99391,1498,-3.8,3.2,0.18,1000,1000,1000,1000
99504,1498,-3.82,3.19,0.15,1000,1000,1000,1000
99665,1498,-3.8,3.23,0.05,1000,1000,1000,1000
99802,1498,-3.85,3.2,0.25,1000,1000,1000,1000
99914,1499,-3.81,3.22,0.48,1000,1000,1000,1000
100097,1499,-3.8,3.23,0.29,1000,1000,1000,1000
100260,1498,-3.81,3.23,0.18,1000,1000,1000,1000
100373,1498,-3.81,3.25,0.2,1000,1000,1000,1000
100488,1498,-3.8,3.25,0.21,1000,1000,1000,1000
100626,1498,-3.8,3.25,0.06,1000,1000,1000,1000
100763,1498,-3.83,3.26,0.21,1000,1000,1000,1000
100993,1498,-3.79,3.25,0.18,1000,1000,1000,1000
101106,1499,-3.8,3.24,0.05,1000,1000,1000,1000
101244,1499,-3.82,3.23,0.37,1000,1000,1000,1000
101378,1498,-3.78,3.22,0.2,1000,1000,1000,1000
101489,1498,-3.79,3.2,0.32,1000,1000,1000,1000
101625,1498,-3.81,3.22,0.24,1000,1000,1000,1000
101806,1498,-3.83,3.23,0.37,1000,1000,1000,1000
101944,1498,-3.81,3.22,0.22,1000,1000,1000,1000
102058,1498,-3.82,3.21,0.24,1000,1000,1000,1000
102201,1498,-3.83,3.23,0.19,1000,1000,1000,1000
102313,1498,-3.85,3.25,0.18,1000,1000,1000,1000
102428,1498,-3.82,3.24,0.08,1000,1000,1000,1000
102562,1498,-3.82,3.26,0.2,1000,1000,1000,1000
102695,1498,-3.8,3.24,0.34,1000,1000,1000,1000
102810,1498,-3.78,3.2,0.1,1000,1000,1000,1000
102925,1498,-3.78,3.21,0.15,1000,1000,1000,1000
103042,1498,-3.77,3.21,0.18,1000,1000,1000,1000
103177,1498,-3.79,3.22,0.17,1000,1000,1000,1000
103313,1498,-3.79,3.2,0.2,1000,1000,1000,1000
103428,1498,-3.76,3.16,0.27,1000,1000,1000,1000
103541,1498,-3.73,3.15,0.18,1000,1000,1000,1000
103722,1499,-3.78,3.19,0.3,1000,1000,1000,1000
103833,1498,-3.8,3.18,0.3,1000,1000,1000,1000
103949,1499,-3.8,3.21,0.22,1000,1000,1000,1000
104064,1498,-3.79,3.23,0.29,1000,1000,1000,1000
104173,1498,-3.8,3.22,0.15,1000,1000,1000,1000
104291,1498,-3.79,3.23,0.31,1000,1000,1000,1000
104427,1498,-3.8,3.23,0.38,1000,1000,1000,1000
104634,1498,-3.82,3.18,0.22,1000,1000,1000,1000
104771,1498,-3.81,3.19,0.11,1000,1000,1000,1000
104904,1499,-3.79,3.2,0.08,1000,1000,1000,1000
105039,1498,-3.84,3.22,0.22,1000,1000,1000,1000
105272,1498,-3.83,3.22,0.27,1000,1000,1000,1000
105406,1498,-3.8,3.22,0.31,1000,1000,1000,1000
105592,1498,-3.79,3.23,0.15,1000,1000,1000,1000
105749,1498,-3.79,3.21,0.16,1000,1000,1000,1000
105886,1498,-3.81,3.21,0.17,1000,1000,1000,1000
105997,1498,-3.82,3.22,0.21,1000,1000,1000,1000
106131,1498,-3.82,3.21,0.18,1000,1000,1000,1000
106245,1498,-3.81,3.22,0.26,1000,1000,1000,1000
106406,1498,-3.84,3.21,0.11,1000,1000,1000,1000
106537,1498,-3.82,3.2,0.14,1000,1000,1000,1000
106655,1498,-3.8,3.2,0.27,1000,1000,1000,1000
106788,1498,-3.78,3.22,0.24,1000,1000,1000,1000
106903,1498,-3.81,3.22,0.19,1000,1000,1000,1000
107041,1498,-3.79,3.19,0.2,1000,1000,1000,1000
107181,1498,-3.78,3.18,0.4,1000,1000,1000,1000
107358,1498,-3.8,3.21,0.18,1000,1000,1000,1000
107468,1498,-3.76,3.22,0.05,1000,1000,1000,1000
107609,1498,-3.79,3.25,0.22,1000,1000,1000,1000
107794,1498,-3.79,3.21,0.15,1000,1000,1000,1000
107908,1498,-3.81,3.2,0.05,1000,1000,1000,1000
108021,1498,-3.82,3.2,0.0,1000,1000,1000,1000
108156,1498,-3.82,3.23,0.15,1000,1000,1000,1000
108337,1498,-3.81,3.26,0.11,1000,1000,1000,1000
108475,1498,-3.84,3.23,0.11,1000,1000,1000,1000
108612,1498,-3.8,3.22,0.08,1000,1000,1000,1000
108728,1498,-3.83,3.22,0.1,1000,1000,1000,1000
108861,1498,-3.82,3.2,0.11,1000,1000,1000,1000
108976,1498,-3.81,3.2,0.21,1000,1000,1000,1000
109113,1498,-3.81,3.2,0.1,1000,1000,1000,1000
109250,1498,-3.82,3.19,0.17,1000,1000,1000,1000
109385,1498,-3.79,3.19,0.3,1000,1000,1000,1000
109522,1498,-3.8,3.2,0.33,1000,1000,1000,1000
109656,1498,-3.84,3.23,0.18,1000,1000,1000,1000
109793,1498,-3.82,3.25,0.07,1000,1000,1000,1000
109908,1498,-3.79,3.24,0.27,1000,1000,1000,1000
110048,1498,-3.8,3.26,0.15,1000,1000,1000,1000
110163,1498,-3.81,3.22,0.16,1000,1000,1000,1000
110296,1498,-3.82,3.18,0.22,1000,1000,1000,1000
110408,1498,-3.84,3.18,0.13,1000,1000,1000,1000
110550,1498,-3.81,3.22,0.25,1000,1000,1000,1000
110685,1498,-3.82,3.22,0.18,1000,1000,1000,1000
110803,1498,-3.76,3.25,0.15,1000,1000,1000,1000
110915,1498,-3.8,3.27,0.22,1000,1000,1000,1000
111094,1498,-3.81,3.21,0.21,1000,1000,1000,1000
111259,1498,-3.84,3.25,0.08,1000,1000,1000,1000
111372,1498,-3.78,3.23,0.28,1000,1000,1000,1000
111508,1498,-3.83,3.21,0.22,1000,1000,1000,1000
111693,1498,-3.79,3.22,0.15,1000,1000,1000,1000
111830,1499,-3.79,3.22,0.2,1000,1000,1000,1000
111967,1498,-3.8,3.21,0.15,1000,1000,1000,1000
112101,1498,-3.8,3.19,0.27,1000,1000,1000,1000
112240,1498,-3.81,3.22,0.11,1000,1000,1000,1000
112376,1498,-3.8,3.22,0.28,1000,1000,1000,1000
112489,1498,-3.81,3.21,0.29,1000,1000,1000,1000
112624,1498,-3.76,3.21,0.08,1000,1000,1000,1000
112764,1498,-3.77,3.22,-0.01,1000,1000,1000,1000
112875,1498,-3.8,3.22,0.21,1000,1000,1000,1000
112987,1498,-3.78,3.22,0.22,1000,1000,1000,1000
113122,1498,-3.78,3.2,0.11,1000,1000,1000,1000
113239,1498,-3.81,3.23,0.07,1000,1000,1000,1000
113394,1498,-3.8,3.22,0.19,1000,1000,1000,1000
113511,1498,-3.8,3.21,0.15,1000,1000,1000,1000
113622,1498,-3.8,3.24,0.18,1000,1000,1000,1000
113779,1498,-3.78,3.26,0.3,1000,1000,1000,1000
113917,1498,-3.79,3.24,0.33,1000,1000,1000,1000
114053,1499,-3.83,3.25,0.21,1000,1000,1000,1000
114168,1498,-3.83,3.24,0.22,1000,1000,1000,1000
114279,1498,-3.82,3.26,0.27,1000,1000,1000,1000
114416,1498,-3.79,3.24,0.3,1000,1000,1000,1000
114624,1498,-3.79,3.21,0.18,1000,1000,1000,1000
114755,1498,-3.8,3.22,0.34,1000,1000,1000,1000
114891,1498,-3.82,3.22,0.2,1000,1000,1000,1000
115008,1498,-3.8,3.2,0.31,1000,1000,1000,1000
115145,1498,-3.81,3.24,0.18,1000,1000,1000,1000
115283,1498,-3.8,3.21,0.24,1000,1000,1000,1000
115421,1499,-3.83,3.22,0.14,1000,1000,1000,1000
115532,1498,-3.82,3.23,0.17,1000,1000,1000,1000
115649,1498,-3.8,3.25,0.22,1000,1000,1000,1000
115766,1498,-3.76,3.24,0.13,1000,1000,1000,1000
115897,1498,-3.77,3.23,0.35,1000,1000,1000,1000
116103,1498,-3.82,3.24,0.24,1000,1000,1000,1000
116218,1498,-3.81,3.24,0.35,1000,1000,1000,1000
116336,1498,-3.82,3.25,0.22,1000,1000,1000,1000
116453,1498,-3.8,3.21,0.24,1000,1000,1000,1000
116562,1498,-3.78,3.22,0.16,1000,1000,1000,1000
116702,1498,-3.84,3.26,-0.07,1000,1000,1000,1000
116813,1498,-3.8,3.23,0.2,1000,1000,1000,1000
116954,1498,-3.8,3.23,0.17,1000,1000,1000,1000
117093,1498,-3.8,3.21,0.27,1000,1000,1000,1000
117225,1498,-3.84,3.26,0.25,1000,1000,1000,1000
117367,1498,-3.84,3.27,0.2,1000,1000,1000,1000
117500,1498,-3.82,3.23,0.21,1000,1000,1000,1000
117633,1498,-3.82,3.22,0.18,1000,1000,1000,1000
117771,1498,-3.79,3.21,0.29,1000,1000,1000,1000
117890,1498,-3.82,3.21,0.14,1000,1000,1000,1000
118003,1498,-3.81,3.18,0.14,1000,1000,1000,1000
118117,1498,-3.84,3.22,0.02,1000,1000,1000,1000
118255,1498,-3.78,3.21,0.32,1000,1000,1000,1000
118363,1498,-3.79,3.19,0.21,1000,1000,1000,1000
118481,1498,-3.77,3.17,0.26,1000,1000,1000,1000
118614,1498,-3.78,3.17,0.18,1000,1000,1000,1000
118729,1498,-3.83,3.24,0.22,1000,1000,1000,1000
118842,1498,-3.83,3.23,0.18,1000,1000,1000,1000
118978,1498,-3.76,3.2,0.19,1000,1000,1000,1000
119115,1498,-3.79,3.23,0.01,1000,1000,1000,1000
119252,1498,-3.8,3.25,0.15,1000,1000,1000,1000
119367,1498,-3.81,3.28,0.3,1000,1000,1000,1000
119484,1498,-3.8,3.27,0.16,1000,1000,1000,1000
119618,1498,-3.8,3.25,0.06,1000,1000,1000,1000
119732,1498,-3.79,3.28,0.14,1000,1000,1000,1000
119915,1498,-3.85,3.23,0.23,1000,1000,1000,1000
120051,1498,-3.85,3.23,0.3,1000,1000,1000,1000
120188,1498,-3.82,3.21,0.15,1000,1000,1000,1000
120325,1499,-3.79,3.24,0.11,1000,1000,1000,1000
120463,1499,-3.8,3.23,0.13,1000,1000,1000,1000
120596,1498,-3.81,3.23,0.17,1000,1000,1000,1000
120734,1498,-3.8,3.22,0.4,1000,1000,1000,1000
120871,1498,-3.79,3.19,0.25,1000,1000,1000,1000
121008,1498,-3.81,3.21,0.34,1000,1000,1000,1000
121189,1498,-3.83,3.22,0.15,1000,1000,1000,1000
121306,1498,-3.82,3.23,0.1,1000,1000,1000,1000
121439,1498,-3.81,3.22,0.16,1000,1000,1000,1000
121555,1498,-3.78,3.24,0.15,1000,1000,1000,1000
121671,1498,-3.81,3.18,0.07,1000,1000,1000,1000
121785,1498,-3.82,3.22,0.2,1000,1000,1000,1000
121900,1498,-3.84,3.23,0.22,1000,1000,1000,1000
122034,1498,-3.79,3.23,0.1,1000,1000,1000,1000
122147,1498,-3.84,3.23,0.21,1000,1000,1000,1000
122287,1498,-3.83,3.22,0.23,1000,1000,1000,1000
122423,1498,-3.86,3.21,0.34,1000,1000,1000,1000
122583,1498,-3.84,3.22,0.18,1000,1000,1000,1000
122694,1498,-3.82,3.22,0.15,1000,1000,1000,1000
122812,1498,-3.88,3.2,0.47,1000,1000,1000,1000
122943,1498,-3.85,3.2,0.23,1000,1000,1000,1000
123080,1499,-3.84,3.21,0.16,1000,1000,1000,1000
123198,1498,-3.82,3.22,0.31,1000,1000,1000,1000
123313,1498,-3.83,3.23,0.03,1000,1000,1000,1000
123453,1498,-3.77,3.21,-0.01,1000,1000,1000,1000
123558,1498,-3.78,3.22,0.32,1000,1000,1000,1000
123675,1498,-3.8,3.21,0.2,1000,1000,1000,1000
123838,1498,-3.79,3.19,-0.05,1000,1000,1000,1000
123996,1498,-3.8,3.22,0.25,1000,1000,1000,1000
124134,1498,-3.82,3.21,0.16,1000,1000,1000,1000
124274,1498,-3.82,3.21,0.12,1000,1000,1000,1000
124406,1498,-3.84,3.27,0.22,1000,1000,1000,1000
124542,1498,-3.81,3.24,0.34,1000,1000,1000,1000
124659,1498,-3.85,3.21,0.1,1000,1000,1000,1000
124797,1498,-3.85,3.22,0.36,1000,1000,1000,1000
124912,1498,-3.82,3.22,0.09,1000,1000,1000,1000
125046,1498,-3.83,3.23,0.11,1000,1000,1000,1000
125180,1498,-3.85,3.21,0.14,1000,1000,1000,1000
125296,1498,-3.84,3.21,0.09,1000,1000,1000,1000
125527,1498,-3.82,3.22,0.3,1000,1000,1000,1000
125660,1498,-3.77,3.24,0.31,1000,1000,1000,1000
125797,1498,-3.8,3.23,0.29,1000,1000,1000,1000
125931,1498,-3.77,3.24,0.25,1000,1000,1000,1000
126064,1498,-3.81,3.25,0.24,1000,1000,1000,1000
126227,1498,-3.8,3.23,0.33,1000,1000,1000,1000
126359,1498,-3.82,3.23,0.08,1000,1000,1000,1000
126478,1498,-3.79,3.26,0.36,1000,1000,1000,1000
126589,1498,-3.8,3.24,0.32,1000,1000,1000,1000
126703,1498,-3.81,3.24,0.06,1000,1000,1000,1000
126863,1498,-3.82,3.25,0.3,1000,1000,1000,1000
126997,1498,-3.81,3.24,0.25,1000,1000,1000,1000
127115,1498,-3.81,3.23,0.21,1000,1000,1000,1000
127227,1498,-3.82,3.22,0.08,1000,1000,1000,1000
127363,1498,-3.85,3.21,0.27,1000,1000,1000,1000
127500,1498,-3.83,3.23,0.16,1000,1000,1000,1000
127613,1498,-3.85,3.23,0.21,1000,1000,1000,1000
127751,1498,-3.83,3.24,0.19,1000,1000,1000,1000
127889,1498,-3.82,3.24,0.1,1000,1000,1000,1000
128019,1498,-3.84,3.23,0.15,1000,1000,1000,1000
128161,1498,-3.8,3.24,0.27,1000,1000,1000,1000
128298,1498,-3.83,3.2,0.16,1000,1000,1000,1000
128409,1498,-3.8,3.19,0.32,1000,1000,1000,1000
128549,1498,-3.79,3.21,0.03,1000,1000,1000,1000
128664,1498,-3.8,3.18,0.13,1000,1000,1000,1000
128847,1498,-3.79,3.2,0.24,1000,1000,1000,1000
128984,1498,-3.81,3.18,0.15,1000,1000,1000,1000
129122,1498,-3.8,3.19,0.21,1000,1000,1000,1000
129236,1498,-3.77,3.21,0.11,1000,1000,1000,1000
129373,1498,-3.8,3.24,0.31,1000,1000,1000,1000
129484,1498,-3.8,3.21,0.12,1000,1000,1000,1000
129604,1498,-3.78,3.2,0.15,1000,1000,1000,1000
129713,1498,-3.82,3.2,0.27,1000,1000,1000,1000
129831,1498,-3.81,3.23,0.12,1000,1000,1000,1000
129969,1498,-3.79,3.21,0.08,1000,1000,1000,1000
130080,1498,-3.83,3.22,0.14,1000,1000,1000,1000
130191,1498,-3.79,3.22,0.35,1000,1000,1000,1000
130354,1498,-3.81,3.23,0.12,1000,1000,1000,1000
130515,1498,-3.81,3.22,0.23,1000,1000,1000,1000
130649,1498,-3.8,3.21,0.11,1000,1000,1000,1000
130832,1498,-3.83,3.2,0.13,1000,1000,1000,1000
130969,1498,-3.83,3.2,0.26,1000,1000,1000,1000
131103,1498,-3.82,3.25,0.19,1000,1000,1000,1000
131216,1498,-3.85,3.24,0.28,1000,1000,1000,1000
131351,1498,-3.83,3.26,0.18,1000,1000,1000,1000
131485,1498,-3.82,3.22,0.17,1000,1000,1000,1000
131603,1498,-3.83,3.19,0.05,1000,1000,1000,1000
131740,1498,-3.82,3.2,0.2,1000,1000,1000,1000
131879,1498,-3.82,3.2,0.2,1000,1000,1000,1000
132015,1498,-3.82,3.22,0.16,1000,1000,1000,1000
132152,1498,-3.86,3.22,0.18,1000,1000,1000,1000
132266,1498,-3.8,3.24,0.13,1000,1000,1000,1000
132402,1498,-3.83,3.26,0.05,1000,1000,1000,1000
132518,1498,-3.85,3.24,0.24,1000,1000,1000,1000
132630,1498,-3.83,3.24,0.06,1000,1000,1000,1000
132767,1498,-3.82,3.21,0.2,1000,1000,1000,1000
132884,1498,-3.82,3.21,0.08,1000,1000,1000,1000
133067,1499,-3.82,3.21,0.3,1000,1000,1000,1000
133205,1498,-3.79,3.21,0.4,1000,1000,1000,1000
133339,1498,-3.81,3.23,0.24,1000,1000,1000,1000
133449,1498,-3.8,3.22,0.3,1000,1000,1000,1000
133567,1498,-3.84,3.23,0.16,1000,1000,1000,1000
133703,1498,-3.85,3.21,0.1,1000,1000,1000,1000
133841,1498,-3.81,3.2,0.15,1000,1000,1000,1000
133981,1498,-3.81,3.23,0.36,1000,1000,1000,1000
134112,1498,-3.79,3.26,0.16,1000,1000,1000,1000
134250,1499,-3.79,3.2,0.12,1000,1000,1000,1000
134361,1498,-3.77,3.2,0.24,1000,1000,1000,1000
134479,1498,-3.79,3.22,0.18,1000,1000,1000,1000
134594,1498,-3.81,3.21,0.31,1000,1000,1000,1000
134728,1498,-3.79,3.25,0.17,1000,1000,1000,1000
134863,1498,-3.85,3.23,0.13,1000,1000,1000,1000
134999,1499,-3.83,3.23,0.06,1000,1000,1000,1000
135133,1498,-3.79,3.22,0.31,1000,1000,1000,1000
135271,1498,-3.8,3.23,0.11,1000,1000,1000,1000
135389,1498,-3.83,3.24,0.27,1000,1000,1000,1000
135522,1498,-3.81,3.24,0.21,1000,1000,1000,1000
135660,1498,-3.8,3.24,0.12,1000,1000,1000,1000
135793,1498,-3.78,3.23,0.08,1000,1000,1000,1000
135930,1498,-3.79,3.22,0.06,1000,1000,1000,1000
136068,1498,-3.81,3.24,0.18,1000,1000,1000,1000
136207,1498,-3.81,3.24,0.24,1000,1000,1000,1000
136339,1498,-3.79,3.22,0.09,1000,1000,1000,1000
136477,1498,-3.83,3.22,0.19,1000,1000,1000,1000
136588,1498,-3.81,3.18,0.11,1000,1000,1000,1000
136729,1498,-3.78,3.16,0.34,1000,1000,1000,1000
136840,1498,-3.77,3.2,0.24,1000,1000,1000,1000
136955,1498,-3.81,3.16,0.27,1000,1000,1000,1000
137136,1498,-3.82,3.2,0.34,1000,1000,1000,1000
137272,1498,-3.8,3.21,0.33,1000,1000,1000,1000
137383,1498,-3.79,3.23,0.15,1000,1000,1000,1000
137497,1498,-3.82,3.24,0.34,1000,1000,1000,1000
137630,1498,-3.83,3.22,0.24,1000,1000,1000,1000
137795,1498,-3.77,3.2,0.16,1000,1000,1000,1000
137929,1498,-3.78,3.2,0.24,1000,1000,1000,1000
138046,1498,-3.83,3.23,0.18,1000,1000,1000,1000
138183,1498,-3.81,3.2,0.3,1000,1000,1000,1000
138317,1498,-3.79,3.2,0.02,1000,1000,1000,1000
138428,1498,-3.81,3.22,0.33,1000,1000,1000,1000
138566,1498,-3.81,3.27,0.17,1000,1000,1000,1000
138683,1498,-3.82,3.23,0.29,1000,1000,1000,1000
138821,1498,-3.8,3.21,0.24,1000,1000,1000,1000
138936,1498,-3.78,3.26,0.15,1000,1000,1000,1000
139072,1498,-3.81,3.21,0.07,1000,1000,1000,1000
139210,1498,-3.84,3.21,0.19,1000,1000,1000,1000
139348,1498,-3.79,3.21,0.31,1000,1000,1000,1000
139481,1498,-3.79,3.22,0.22,1000,1000,1000,1000
139645,1498,-3.79,3.21,0.16,1000,1000,1000,1000
139779,1498,-3.78,3.2,0.17,1000,1000,1000,1000
139897,1498,-3.78,3.19,0.13,1000,1000,1000,1000
140036,1498,-3.81,3.21,0.06,1000,1000,1000,1000
140150,1498,-3.82,3.23,0.21,1000,1000,1000,1000
140263,1498,-3.8,3.21,0.27,1000,1000,1000,1000
140374,1499,-3.8,3.22,0.1,1000,1000,1000,1000
140511,1498,-3.84,3.21,0.11,1000,1000,1000,1000
140655,1498,-3.84,3.23,0.17,1000,1000,1000,1000
140766,1498,-3.81,3.24,0.2,1000,1000,1000,1000
140875,1498,-3.85,3.25,0.09,1000,1000,1000,1000
140992,1498,-3.83,3.29,0.21,1000,1000,1000,1000
141103,1498,-3.81,3.26,0.07,1000,1000,1000,1000
141240,1498,-3.83,3.25,0.12,1000,1000,1000,1000
141379,1498,-3.79,3.25,0.14,1000,1000,1000,1000
141540,1498,-3.81,3.22,0.05,1000,1000,1000,1000
141678,1498,-3.82,3.22,0.27,1000,1000,1000,1000
141790,1498,-3.8,3.24,0.01,1000,1000,1000,1000
141901,1498,-3.78,3.22,0.15,1000,1000,1000,1000
142042,1498,-3.81,3.22,0.32,1000,1000,1000,1000
142154,1498,-3.81,3.22,0.18,1000,1000,1000,1000
142293,1498,-3.79,3.21,0.21,1000,1000,1000,1000
142408,1498,-3.8,3.23,0.22,1000,1000,1000,1000
142541,1498,-3.8,3.21,0.26,1000,1000,1000,1000
142661,1498,-3.78,3.22,0.36,1000,1000,1000,1000
142774,1499,-3.79,3.23,0.05,1000,1000,1000,1000
142911,1498,-3.81,3.23,0.14,1000,1000,1000,1000
143091,1498,-3.82,3.23,-0.01,1000,1000,1000,1000
143230,1498,-3.82,3.22,0.18,1000,1000,1000,1000
143411,1498,-3.79,3.22,0.37,1000,1000,1000,1000
143529,1498,-3.8,3.22,0.15,1000,1000,1000,1000
143640,1498,-3.85,3.25,0.21,1000,1000,1000,1000
143778,1499,-3.85,3.23,0.3,1000,1000,1000,1000
143912,1498,-3.81,3.24,0.25,1000,1000,1000,1000
144029,1498,-3.8,3.24,0.28,1000,1000,1000,1000
144160,1498,-3.82,3.24,0.14,1000,1000,1000,1000
144278,1498,-3.8,3.23,0.38,1000,1000,1000,1000
144411,1498,-3.8,3.19,0.02,1000,1000,1000,1000
144554,1498,-3.82,3.21,0.24,1000,1000,1000,1000
144689,1498,-3.81,3.22,0.18,1000,1000,1000,1000
144823,1498,-3.8,3.2,0.24,1000,1000,1000,1000
144941,1498,-3.78,3.2,0.18,1000,1000,1000,1000
145052,1498,-3.81,3.22,0.15,1000,1000,1000,1000
145186,1498,-3.8,3.2,0.11,1000,1000,1000,1000
145323,1498,-3.8,3.2,0.14,1000,1000,1000,1000
145439,1499,-3.81,3.23,0.29,1000,1000,1000,1000
145575,1499,-3.78,3.22,0.11,1000,1000,1000,1000
145712,1498,-3.78,3.21,0.11,1000,1000,1000,1000
145848,1498,-3.8,3.22,0.18,1000,1000,1000,1000
145983,1499,-3.79,3.22,0.23,1000,1000,1000,1000
146120,1498,-3.83,3.21,0.05,1000,1000,1000,1000
146254,1498,-3.81,3.26,0.13,1000,1000,1000,1000
146395,1498,-3.82,3.24,0.4,1000,1000,1000,1000
146533,1499,-3.83,3.25,0.09,1000,1000,1000,1000
146666,1498,-3.84,3.23,-0.03,1000,1000,1000,1000
146828,1498,-3.84,3.21,0.29,1000,1000,1000,1000
146965,1498,-3.86,3.23,0.05,1000,1000,1000,1000
147148,1498,-3.84,3.24,0.33,1000,1000,1000,1000
147285,1498,-3.79,3.23,0.21,1000,1000,1000,1000
147396,1498,-3.79,3.24,0.15,1000,1000,1000,1000
147530,1498,-3.82,3.22,0.2,1000,1000,1000,1000
147693,1498,-3.84,3.24,0.21,1000,1000,1000,1000
147853,1498,-3.83,3.23,0.29,1000,1000,1000,1000
147991,1498,-3.82,3.23,0.28,1000,1000,1000,1000
148105,1498,-3.8,3.22,0.28,1000,1000,1000,1000
148236,1498,-3.82,3.18,0.18,1000,1000,1000,1000
148370,1482,-3.86,3.22,0.08,1000,1000,1000,1000
148511,1325,-3.85,3.22,0.17,1000,1000,1000,1000
148648,1057,-3.84,3.25,0.15,1000,1000,1000,1000
148759,1000,-3.83,3.24,0.07,1000,1000,1000,1000
148935,1001,-3.82,3.24,0.3,1000,1000,1000,1000
149072,1000,-3.85,3.22,0.28,1000,1000,1000,1000
149183,1001,-3.82,3.22,0.14,1000,1000,1000,1000
149296,1000,-3.82,3.21,0.19,1000,1000,1000,1000
149432,1001,-3.82,3.22,0.27,1000,1000,1000,1000
149540,1000,-3.82,3.22,0.44,1000,1000,1000,1000
149655,1000,-3.82,3.21,0.16,1000,1000,1000,1000
149763,1050,-3.85,3.22,0.18,1050,1050,1080,1050
149878,1050,-3.83,3.21,0.34,1050,1050,1080,1050
150011,1050,-3.78,3.21,0.27,1050,1050,1080,1050
150169,1050,-3.8,3.2,0.29,1050,1050,1080,1050
150281,1050,-3.8,3.22,0.21,1050,1050,1080,1050
150392,1050,-3.79,3.23,0.12,1050,1050,1080,1050
150505,1050,-3.78,3.24,0.44,1050,1050,1080,1050
150619,1050,-3.76,3.23,0.31,1050,1050,1080,1050
150730,1050,-3.78,3.24,0.16,1050,1050,1080,1050
150859,1050,-3.79,3.24,0.03,1050,1050,1080,1050
150996,1050,-3.8,3.21,0.18,1050,1050,1080,1050
151127,1050,-3.8,3.21,0.1,1050,1050,1080,1050
151265,1050,-3.81,3.24,0.21,1050,1050,1080,1050
151399,1050,-3.83,3.21,0.16,1050,1050,1080,1050
151510,1050,-3.85,3.23,0.23,1050,1050,1080,1050
151645,1050,-3.83,3.24,0.27,1050,1050,1080,1050
151756,1050,-3.81,3.24,0.16,1050,1050,1080,1050
151936,1050,-3.87,3.24,0.23,1050,1050,1080,1050
152046,1050,-3.83,3.25,0.1,1050,1050,1080,1050
152160,1050,-3.83,3.22,0.02,1050,1050,1080,1050
152291,1050,-3.84,3.23,0.05,1050,1050,1080,1050
152405,1050,-3.83,3.25,0.16,1050,1050,1080,1050
152514,1050,-3.82,3.23,0.17,1050,1050,1080,1050
152651,1050,-3.78,3.24,0.24,1050,1050,1080,1050
152782,1050,-3.8,3.24,0.18,1050,1050,1080,1050
152894,1050,-3.78,3.25,0.29,1050,1050,1080,1050
153007,1050,-3.8,3.25,0.11,1050,1050,1080,1050
153140,1050,-3.79,3.24,0.14,1050,1050,1080,1050
153254,1050,-3.82,3.28,0.18,1050,1050,1080,1050
153413,1050,-3.81,3.25,0.17,1050,1050,1080,1050
153521,1050,-3.83,3.22,0.18,1050,1050,1080,1050
153634,1050,-3.85,3.24,0.21,1050,1050,1080,1050
153746,1050,-3.87,3.24,0.24,1050,1050,1080,1050
153879,1050,-3.86,3.24,0.11,1050,1050,1080,1050
154012,1050,-3.86,3.24,0.27,1050,1050,1080,1050
154122,1050,-3.84,3.22,0.14,1050,1050,1080,1050
154259,1050,-3.83,3.26,0.24,1050,1050,1080,1050
154392,1050,-3.85,3.24,0.34,1050,1050,1080,1050
154507,1050,-3.82,3.25,0.02,1050,1050,1080,1050
154638,1050,-3.82,3.24,0.1,1050,1050,1080,1050
154752,1050,-3.86,3.21,0.3,1050,1050,1080,1050
154885,1050,-3.82,3.24,0.21,1050,1050,1080,1050
154997,1050,-3.78,3.26,0.05,1050,1050,1080,1050
155133,1050,-3.75,3.23,0.25,1050,1050,1080,1050
155264,1050,-3.79,3.24,0.11,1050,1050,1080,1050
155379,1050,-3.81,3.21,0.25,1050,1050,1080,1050
155515,1050,-3.82,3.23,0.22,1050,1050,1080,1050
155644,1050,-3.8,3.23,0.13,1050,1050,1080,1050
155802,1050,-3.79,3.28,0.0,1050,1050,1080,1050
155914,1050,-3.81,3.24,0.43,1050,1050,1080,1050
156025,1050,-3.81,3.24,0.13,1050,1050,1080,1050
156203,1050,-3.83,3.25,0.19,1050,1050,1080,1050
156336,1050,-3.85,3.25,0.17,1050,1050,1080,1050
156474,1050,-3.84,3.23,0.15,1050,1050,1080,1050
156586,1050,-3.82,3.25,0.14,1050,1050,1080,1050
156723,1050,-3.83,3.24,0.02,1050,1050,1080,1050
156832,1050,-3.85,3.19,0.11,1050,1050,1080,1050
156965,1050,-3.8,3.21,0.14,1050,1050,1080,1050
157145,1050,-3.81,3.25,0.24,1050,1050,1080,1050
157257,1050,-3.82,3.22,0.11,1050,1050,1080,1050
157392,1050,-3.81,3.21,0.05,1050,1050,1080,1050
157503,1050,-3.86,3.2,0.09,1050,1050,1080,1050
157636,1050,-3.82,3.24,0.17,1050,1050,1080,1050
157768,1050,-3.82,3.21,0.18,1050,1050,1080,1050
157879,1050,-3.81,3.23,0.14,1050,1050,1080,1050
158017,1050,-3.81,3.24,0.23,1050,1050,1080,1050
158129,1050,-3.82,3.24,0.04,1050,1050,1080,1050
158263,1050,-3.83,3.22,0.07,1050,1050,1080,1050
158374,1050,-3.83,3.21,0.28,1050,1050,1080,1050
158485,1050,-3.85,3.21,0.4,1050,1050,1080,1050
158623,1050,-3.84,3.25,0.09,1050,1050,1080,1050
158734,1050,-3.84,3.29,0.1,1050,1050,1080,1050
158867,1050,-3.83,3.26,0.12,1050,1050,1080,1050
158999,1050,-3.81,3.29,0.02,1050,1050,1080,1050
159134,1050,-3.82,3.23,0.35,1050,1050,1080,1050
159270,1080,-3.8,3.21,0.15,1074,1078,1124,1072
159407,1129,-3.91,3.24,1.0,1086,1105,1198,1155
159544,1080,-3.81,2.96,1.24,1022,1089,1117,1120
159677,1050,-3.7,2.88,0.57,1050,1050,1080,1050
159808,1050,-3.91,2.9,0.64,1050,1050,1080,1050
159924,1050,-3.87,3.1,0.11,1050,1050,1080,1050
160057,1050,-3.8,3.23,-0.28,1050,1050,1080,1050
160169,1050,-3.89,3.24,-0.06,1050,1050,1080,1050
160279,1050,-3.83,3.35,0.03,1050,1050,1080,1050
160413,1050,-3.64,3.28,0.34,1050,1050,1080,1050
160525,1050,-3.65,3.32,0.27,1050,1050,1080,1050
160633,1050,-3.69,3.34,0.34,1050,1050,1080,1050
160744,1050,-3.78,3.31,0.4,1050,1050,1080,1050
160859,1050,-3.85,3.32,0.27,1050,1050,1080,1050
160994,1050,-3.81,3.24,0.02,1050,1050,1080,1050
161146,1050,-3.84,3.27,0.16,1050,1050,1080,1050
161303,1050,-3.82,3.27,0.22,1050,1050,1080,1050
161416,1050,-3.82,3.22,-0.02,1050,1050,1080,1050
161527,1050,-3.84,3.22,0.18,1050,1050,1080,1050
161706,1050,-3.83,3.2,0.18,1050,1050,1080,1050
161866,1050,-3.82,3.26,0.06,1050,1050,1080,1050
162000,1050,-3.85,3.25,0.2,1050,1050,1080,1050
162131,1050,-3.83,3.22,0.18,1050,1050,1080,1050
162267,1050,-3.85,3.27,0.1,1050,1050,1080,1050
162423,1062,-3.81,3.25,0.02,1058,1056,1109,1053
162563,1098,-3.79,3.19,0.47,1093,1112,1127,1088
162697,1050,-3.87,3.02,0.69,1050,1050,1080,1050
162833,1050,-3.97,3.08,-0.62,1050,1050,1080,1050
162946,1050,-3.59,3.0,-0.18,1050,1050,1080,1050
163053,1050,-3.7,3.07,0.11,1050,1050,1080,1050
163165,1050,-3.48,2.87,-1.05,1050,1050,1080,1050
163299,1050,-3.4,3.1,0.17,1050,1050,1080,1050
163431,1050,-3.51,3.1,0.02,1050,1050,1080,1050
163568,1050,-3.76,3.24,0.19,1050,1050,1080,1050
163680,1050,-3.88,3.22,0.19,1050,1050,1080,1050
163811,1050,-3.82,3.2,0.02,1050,1050,1080,1050
163944,1000,-3.81,3.22,0.39,1000,1000,1000,1000
164059,1000,-3.81,3.25,0.17,1000,1000,1000,1000
164194,1000,-3.82,3.23,0.21,1000,1000,1000,1000
164307,1000,-3.81,3.23,0.11,1000,1000,1000,1000
164414,1049,-3.8,3.26,0.31,1000,1000,1000,1000
164553,1498,-3.82,3.25,0.13,1000,1000,1000,1000
164669,1498,-3.82,3.24,0.28,1000,1000,1000,1000
164898,1498,-3.81,3.22,0.11,1000,1000,1000,1000
165036,1498,-3.81,3.21,0.27,1000,1000,1000,1000
165212,1498,-3.83,3.21,0.31,1000,1000,1000,1000
165329,1498,-3.81,3.24,0.22,1000,1000,1000,1000
165459,1498,-3.82,3.21,0.18,1000,1000,1000,1000
165600,1499,-3.8,3.24,0.24,1000,1000,1000,1000
165737,1498,-3.8,3.2,0.23,1000,1000,1000,1000
165871,1499,-3.81,3.21,0.15,1000,1000,1000,1000
166009,1498,-3.82,3.21,0.21,1000,1000,1000,1000
166119,1498,-3.84,3.21,0.16,1000,1000,1000,1000
166286,1498,-3.84,3.2,0.21,1000,1000,1000,1000
